locality,state,long,lat,latlong
EAST MELBOURNE,VIC,144.982207,-37.818517,[144.982207 -37.818517]
WEST MELBOURNE,VIC,144.949592,-37.810871,[144.949592 -37.810871]
FOOTSCRAY,VIC,144.907953,-37.807101,[144.907953 -37.807101]
SEDDON,VIC,144.907953,-37.807101,[144.907953 -37.807101]
BROOKLYN,VIC,144.861162,-37.807135,[144.861162 -37.807135]
KINGSVILLE,VIC,144.861162,-37.807135,[144.861162 -37.807135]
MAIDSTONE,VIC,144.861162,-37.807135,[144.861162 -37.807135]
WEST FOOTSCRAY,VIC,144.861162,-37.807135,[144.861162 -37.807135]
YARRAVILLE,VIC,144.888686,-37.814183,[144.888686 -37.814183]
NEWPORT,VIC,144.880556,-37.838242,[144.880556 -37.838242]
SOUTH KINGSVILLE,VIC,144.880556,-37.838242,[144.880556 -37.838242]
SPOTSWOOD,VIC,144.880556,-37.838242,[144.880556 -37.838242]
WILLIAMSTOWN,VIC,144.888461,-37.863743,[144.888461 -37.863743]
WILLIAMSTOWN NORTH,VIC,144.888461,-37.863743,[144.888461 -37.863743]
ALTONA,VIC,144.812736,-37.86172,[144.812736 -37.86172]
SEAHOLME,VIC,144.812736,-37.86172,[144.812736 -37.86172]
BRAYBROOK,VIC,144.854014,-37.784683,[144.854014 -37.784683]
ALBION,VIC,144.829945,-37.777204,[144.829945 -37.777204]
SUNSHINE,VIC,144.829945,-37.777204,[144.829945 -37.777204]
SUNSHINE NORTH,VIC,144.829945,-37.777204,[144.829945 -37.777204]
SUNSHINE WEST,VIC,144.829945,-37.777204,[144.829945 -37.777204]
ALBANVALE,VIC,144.796693,-37.743361,[144.796693 -37.743361]
KEALBA,VIC,144.796693,-37.743361,[144.796693 -37.743361]
KINGS PARK,VIC,144.796693,-37.743361,[144.796693 -37.743361]
ST ALBANS,VIC,144.796693,-37.743361,[144.796693 -37.743361]
ARDEER,VIC,144.793961,-37.795937,[144.793961 -37.795937]
BURNSIDE,VIC,144.770641,-37.78272,[144.770641 -37.78272]
BURNSIDE HEIGHTS,VIC,144.755657,-37.73218752,[144.755657 -37.73218752]
CAIRNLEA,VIC,144.770641,-37.78272,[144.770641 -37.78272]
CAROLINE SPRINGS,VIC,144.770641,-37.78272,[144.770641 -37.78272]
DEER PARK,VIC,144.770641,-37.78272,[144.770641 -37.78272]
MAMBOURIN,VIC,144.556552,-37.899873,[144.556552 -37.899873]
MANOR LAKES,VIC,144.5812323,-37.86694209,[144.5812323 -37.86694209]
WYNDHAM VALE,VIC,144.556552,-37.899873,[144.556552 -37.899873]
ALTONA EAST,VIC,144.839704,-37.835562,[144.839704 -37.835562]
ALTONA NORTH,VIC,144.839704,-37.835562,[144.839704 -37.835562]
DERRIMUT,VIC,144.64209,-37.91624,[144.64209 -37.91624]
WILLIAMS LANDING,VIC,144.7430155,-37.86199812,[144.7430155 -37.86199812]
ALTONA MEADOWS,VIC,144.777165,-37.875066,[144.777165 -37.875066]
LAVERTON,VIC,144.777165,-37.875066,[144.777165 -37.875066]
SEABROOK,VIC,144.777165,-37.875066,[144.777165 -37.875066]
HOPPERS CROSSING,VIC,144.705831,-37.837165,[144.705831 -37.837165]
TARNEIT,VIC,144.705831,-37.837165,[144.705831 -37.837165]
TRUGANINA,VIC,144.705831,-37.837165,[144.705831 -37.837165]
POINT COOK,VIC,144.64209,-37.91624,[144.64209 -37.91624]
WERRIBEE,VIC,144.64209,-37.91624,[144.64209 -37.91624]
WERRIBEE SOUTH,VIC,144.64209,-37.91624,[144.64209 -37.91624]
FLEMINGTON,VIC,144.923403,-37.79119,[144.923403 -37.79119]
KENSINGTON,VIC,144.923403,-37.79119,[144.923403 -37.79119]
ASCOT VALE,VIC,144.897221,-37.774486,[144.897221 -37.774486]
MARIBYRNONG,VIC,144.897221,-37.774486,[144.897221 -37.774486]
TRAVANCORE,VIC,144.897221,-37.774486,[144.897221 -37.774486]
KEILOR EAST,VIC,144.857638,-37.74107,[144.857638 -37.74107]
AVONDALE HEIGHTS,VIC,144.86194,-37.761235,[144.86194 -37.761235]
KEILOR,VIC,144.82246,-37.705324,[144.82246 -37.705324]
DELAHEY,VIC,144.780474,-37.715579,[144.780474 -37.715579]
SYDENHAM,VIC,144.780474,-37.715579,[144.780474 -37.715579]
TAYLORS HILL,VIC,144.780474,-37.715579,[144.780474 -37.715579]
KEILOR DOWNS,VIC,144.766873,-37.700454,[144.766873 -37.700454]
KEILOR LODGE,VIC,144.766873,-37.700454,[144.766873 -37.700454]
TAYLORS LAKES,VIC,144.766873,-37.700454,[144.766873 -37.700454]
MOONEE PONDS,VIC,144.922995,-37.766184,[144.922995 -37.766184]
ABERFELDIE,VIC,144.902556,-37.751845,[144.902556 -37.751845]
ESSENDON,VIC,144.902556,-37.751845,[144.902556 -37.751845]
ESSENDON WEST,VIC,144.902556,-37.751845,[144.902556 -37.751845]
ESSENDON NORTH,VIC,144.904815,-37.731464,[144.904815 -37.731464]
STRATHMORE,VIC,144.904815,-37.731464,[144.904815 -37.731464]
STRATHMORE HEIGHTS,VIC,144.904815,-37.731464,[144.904815 -37.731464]
AIRPORT WEST,VIC,144.866305,-37.727529,[144.866305 -37.727529]
KEILOR PARK,VIC,144.866305,-37.727529,[144.866305 -37.727529]
NIDDRIE,VIC,144.866305,-37.727529,[144.866305 -37.727529]
GLADSTONE PARK,VIC,144.888368,-37.691916,[144.888368 -37.691916]
GOWANBRAE,VIC,144.888368,-37.691916,[144.888368 -37.691916]
TULLAMARINE,VIC,144.888368,-37.691916,[144.888368 -37.691916]
PASCOE VALE,VIC,144.936356,-37.731138,[144.936356 -37.731138]
PASCOE VALE SOUTH,VIC,144.936356,-37.731138,[144.936356 -37.731138]
GLENROY,VIC,144.927968,-37.706578,[144.927968 -37.706578]
HADFIELD,VIC,144.927968,-37.706578,[144.927968 -37.706578]
OAK PARK,VIC,144.927968,-37.706578,[144.927968 -37.706578]
BROADMEADOWS,VIC,144.930247,-37.681105,[144.930247 -37.681105]
DALLAS,VIC,144.930247,-37.681105,[144.930247 -37.681105]
JACANA,VIC,144.930247,-37.681105,[144.930247 -37.681105]
COOLAROO,VIC,144.923609,-37.653917,[144.923609 -37.653917]
MEADOW HEIGHTS,VIC,144.923609,-37.653917,[144.923609 -37.653917]
ATTWOOD,VIC,144.888492,-37.673182,[144.888492 -37.673182]
WESTMEADOWS,VIC,144.888492,-37.673182,[144.888492 -37.673182]
NORTH MELBOURNE,VIC,144.943559,-37.8006,[144.943559 -37.8006]
PARKVILLE,VIC,144.948903,-37.788996,[144.948903 -37.788996]
CARLTON,VIC,144.966112,-37.803569,[144.966112 -37.803569]
CARLTON NORTH,VIC,144.96724,-37.786971,[144.96724 -37.786971]
PRINCES HILL,VIC,144.96724,-37.786971,[144.96724 -37.786971]
BRUNSWICK WEST,VIC,144.942222,-37.763584,[144.942222 -37.763584]
BRUNSWICK,VIC,144.960108,-37.766292,[144.960108 -37.766292]
BRUNSWICK EAST,VIC,144.97728,-37.770012,[144.97728 -37.770012]
COBURG,VIC,144.964524,-37.739901,[144.964524 -37.739901]
COBURG NORTH,VIC,144.964524,-37.739901,[144.964524 -37.739901]
GREENVALE,VIC,144.879626,-37.639887,[144.879626 -37.639887]
FAWKNER,VIC,144.967874,-37.707326,[144.967874 -37.707326]
CAMPBELLFIELD,VIC,144.956763,-37.666265,[144.956763 -37.666265]
CRAIGIEBURN,VIC,144.942199,-37.546522,[144.942199 -37.546522]
DONNYBROOK,VIC,144.942199,-37.546522,[144.942199 -37.546522]
KALKALLO,VIC,144.942199,-37.546522,[144.942199 -37.546522]
MICKLEHAM,VIC,144.942199,-37.546522,[144.942199 -37.546522]
ROXBURGH PARK,VIC,144.942199,-37.546522,[144.942199 -37.546522]
FITZROY,VIC,144.977795,-37.802608,[144.977795 -37.802608]
COLLINGWOOD,VIC,144.986906,-37.804846,[144.986906 -37.804846]
ABBOTSFORD,VIC,144.998203,-37.803515,[144.998203 -37.803515]
CLIFTON HILL,VIC,144.98622,-37.790974,[144.98622 -37.790974]
FITZROY NORTH,VIC,144.98622,-37.790974,[144.98622 -37.790974]
NORTHCOTE,VIC,144.999745,-37.774064,[144.999745 -37.774064]
THORNBURY,VIC,145.007006,-37.759426,[145.007006 -37.759426]
PRESTON,VIC,145.005702,-37.74247,[145.005702 -37.74247]
RESERVOIR,VIC,145.005955,-37.712474,[145.005955 -37.712474]
THOMASTOWN,VIC,145.006644,-37.684684,[145.006644 -37.684684]
LALOR,VIC,145.002679,-37.66607,[145.002679 -37.66607]
EPPING,VIC,145.022137,-37.643598,[145.022137 -37.643598]
ALPHINGTON,VIC,145.025853,-37.778298,[145.025853 -37.778298]
FAIRFIELD,VIC,145.025853,-37.778298,[145.025853 -37.778298]
IVANHOE,VIC,145.048573,-37.772675,[145.048573 -37.772675]
IVANHOE EAST,VIC,145.048573,-37.772675,[145.048573 -37.772675]
HEIDELBERG HEIGHTS,VIC,145.046401,-37.743008,[145.046401 -37.743008]
HEIDELBERG WEST,VIC,145.046401,-37.743008,[145.046401 -37.743008]
MILL PARK,VIC,145.065658,-37.664858,[145.065658 -37.664858]
BUNDOORA,VIC,145.056223,-37.701346,[145.056223 -37.701346]
KINGSBURY,VIC,145.056223,-37.701346,[145.056223 -37.701346]
EAGLEMONT,VIC,145.082685,-37.744406,[145.082685 -37.744406]
HEIDELBERG,VIC,145.082685,-37.744406,[145.082685 -37.744406]
ROSANNA,VIC,145.082685,-37.744406,[145.082685 -37.744406]
VIEWBANK,VIC,145.082685,-37.744406,[145.082685 -37.744406]
MACLEOD,VIC,145.06988,-37.724398,[145.06988 -37.724398]
YALLAMBIE,VIC,145.06988,-37.724398,[145.06988 -37.724398]
WATSONIA,VIC,145.082426,-37.711787,[145.082426 -37.711787]
WATSONIA NORTH,VIC,145.082426,-37.711787,[145.082426 -37.711787]
BRIAR HILL,VIC,145.108339,-37.700175,[145.108339 -37.700175]
GREENSBOROUGH,VIC,145.108339,-37.700175,[145.108339 -37.700175]
ST HELENA,VIC,145.1294801,-37.68949912,[145.1294801 -37.68949912]
DIAMOND CREEK,VIC,145.150369,-37.667713,[145.150369 -37.667713]
PLENTY,VIC,145.107802,-37.668408,[145.107802 -37.668408]
LOWER PLENTY,VIC,145.115208,-37.73919,[145.115208 -37.73919]
MONTMORENCY,VIC,145.124727,-37.719759,[145.124727 -37.719759]
ELTHAM,VIC,145.158579,-37.713299,[145.158579 -37.713299]
ELTHAM NORTH,VIC,145.158579,-37.713299,[145.158579 -37.713299]
RESEARCH,VIC,145.158579,-37.713299,[145.158579 -37.713299]
WATTLE GLEN,VIC,145.185826,-37.670851,[145.185826 -37.670851]
HURSTBRIDGE,VIC,145.192854,-37.592101,[145.192854 -37.592101]
KEW,VIC,145.036575,-37.807397,[145.036575 -37.807397]
KEW EAST,VIC,145.05219,-37.793805,[145.05219 -37.793805]
BALWYN,VIC,145.074116,-37.811738,[145.074116 -37.811738]
DEEPDENE,VIC,145.0658595,-37.81141396,[145.0658595 -37.81141396]
BALWYN NORTH,VIC,145.081714,-37.793695,[145.081714 -37.793695]
BULLEEN,VIC,145.084806,-37.772477,[145.084806 -37.772477]
TEMPLESTOWE,VIC,145.142675,-37.758335,[145.142675 -37.758335]
TEMPLESTOWE LOWER,VIC,145.110677,-37.765225,[145.110677 -37.765225]
DONCASTER,VIC,145.125797,-37.786429,[145.125797 -37.786429]
DONCASTER EAST,VIC,145.161649,-37.784786,[145.161649 -37.784786]
DONVALE,VIC,145.186334,-37.794054,[145.186334 -37.794054]
WARRANDYTE,VIC,145.204689,-37.752123,[145.204689 -37.752123]
PARK ORCHARDS,VIC,145.212599,-37.778595,[145.212599 -37.778595]
WONGA PARK,VIC,145.267586,-37.736734,[145.267586 -37.736734]
CHIRNSIDE PARK,VIC,145.313086,-37.737629,[145.313086 -37.737629]
BURNLEY,VIC,145.001788,-37.823303,[145.001788 -37.823303]
CREMORNE,VIC,145.001788,-37.823303,[145.001788 -37.823303]
RICHMOND,VIC,145.001788,-37.823303,[145.001788 -37.823303]
HAWTHORN,VIC,145.030602,-37.822725,[145.030602 -37.822725]
HAWTHORN EAST,VIC,145.049415,-37.829752,[145.049415 -37.829752]
CAMBERWELL,VIC,145.068191,-37.840867,[145.068191 -37.840867]
BURWOOD,VIC,145.101,-37.851305,[145.101 -37.851305]
CANTERBURY,VIC,145.075748,-37.827203,[145.075748 -37.827203]
MONT ALBERT,VIC,145.097236,-37.825173,[145.097236 -37.825173]
SURREY HILLS,VIC,145.097236,-37.825173,[145.097236 -37.825173]
BOX HILL,VIC,145.122393,-37.828866,[145.122393 -37.828866]
BOX HILL SOUTH,VIC,145.122393,-37.828866,[145.122393 -37.828866]
BOX HILL NORTH,VIC,145.125084,-37.806965,[145.125084 -37.806965]
MONT ALBERT NORTH,VIC,145.125084,-37.806965,[145.125084 -37.806965]
BLACKBURN,VIC,145.149653,-37.81805,[145.149653 -37.81805]
BLACKBURN NORTH,VIC,145.149653,-37.81805,[145.149653 -37.81805]
BLACKBURN SOUTH,VIC,145.149653,-37.81805,[145.149653 -37.81805]
FOREST HILL,VIC,145.174489,-37.817798,[145.174489 -37.817798]
NUNAWADING,VIC,145.174489,-37.817798,[145.174489 -37.817798]
MITCHAM,VIC,145.196686,-37.819222,[145.196686 -37.819222]
VERMONT,VIC,145.192303,-37.848786,[145.192303 -37.848786]
VERMONT SOUTH,VIC,145.192303,-37.848786,[145.192303 -37.848786]
RINGWOOD,VIC,145.232557,-37.796091,[145.232557 -37.796091]
RINGWOOD NORTH,VIC,145.232557,-37.796091,[145.232557 -37.796091]
WARRANWOOD,VIC,145.232557,-37.796091,[145.232557 -37.796091]
HEATHMONT,VIC,145.248209,-37.819594,[145.248209 -37.819594]
RINGWOOD EAST,VIC,145.248209,-37.819594,[145.248209 -37.819594]
CROYDON,VIC,145.282396,-37.779876,[145.282396 -37.779876]
CROYDON HILLS,VIC,145.282396,-37.779876,[145.282396 -37.779876]
CROYDON NORTH,VIC,145.282396,-37.779876,[145.282396 -37.779876]
CROYDON SOUTH,VIC,145.282396,-37.779876,[145.282396 -37.779876]
KILSYTH,VIC,145.313346,-37.819364,[145.313346 -37.819364]
KILSYTH SOUTH,VIC,145.313346,-37.819364,[145.313346 -37.819364]
MOOROOLBARK,VIC,145.322794,-37.78391,[145.322794 -37.78391]
LAUNCHING PLACE,VIC,145.532666,-37.814506,[145.532666 -37.814506]
SEVILLE,VIC,145.532666,-37.814506,[145.532666 -37.814506]
SEVILLE EAST,VIC,145.532666,-37.814506,[145.532666 -37.814506]
WANDIN NORTH,VIC,145.532666,-37.814506,[145.532666 -37.814506]
WOORI YALLOCK,VIC,145.532666,-37.814506,[145.532666 -37.814506]
LILYDALE,VIC,145.363185,-37.759154,[145.363185 -37.759154]
SOUTH YARRA,VIC,144.991264,-37.840679,[144.991264 -37.840679]
TOORAK,VIC,145.017732,-37.84411,[145.017732 -37.84411]
ARMADALE,VIC,145.019393,-37.858918,[145.019393 -37.858918]
MALVERN,VIC,145.034127,-37.857443,[145.034127 -37.857443]
MALVERN EAST,VIC,145.049328,-37.873557,[145.049328 -37.873557]
GLEN IRIS,VIC,145.057833,-37.857116,[145.057833 -37.857116]
ASHBURTON,VIC,145.092946,-37.867864,[145.092946 -37.867864]
ASHWOOD,VIC,145.092946,-37.867864,[145.092946 -37.867864]
CHADSTONE,VIC,145.090149,-37.882562,[145.090149 -37.882562]
MOUNT WAVERLEY,VIC,145.128118,-37.880748,[145.128118 -37.880748]
SYNDAL,VIC,145.128118,-37.880748,[145.128118 -37.880748]
GLEN WAVERLEY,VIC,145.170841,-37.876968,[145.170841 -37.876968]
WHEELERS HILL,VIC,145.170841,-37.876968,[145.170841 -37.876968]
BURWOOD EAST,VIC,145.151119,-37.85523,[145.151119 -37.85523]
STUDFIELD,VIC,145.221695,-37.864951,[145.221695 -37.864951]
WANTIRNA,VIC,145.221695,-37.864951,[145.221695 -37.864951]
WANTIRNA SOUTH,VIC,145.221695,-37.864951,[145.221695 -37.864951]
BAYSWATER,VIC,145.270141,-37.845116,[145.270141 -37.845116]
BAYSWATER NORTH,VIC,145.270141,-37.845116,[145.270141 -37.845116]
THE BASIN,VIC,145.31784,-37.856009,[145.31784 -37.856009]
BORONIA,VIC,145.284418,-37.861799,[145.284418 -37.861799]
FERNTREE GULLY,VIC,145.292895,-37.917932,[145.292895 -37.917932]
LYSTERFIELD,VIC,145.292895,-37.917932,[145.292895 -37.917932]
LYSTERFIELD SOUTH,VIC,145.292895,-37.917932,[145.292895 -37.917932]
UPPER FERNTREE GULLY,VIC,145.292895,-37.917932,[145.292895 -37.917932]
UPWEY,VIC,145.324468,-37.910077,[145.324468 -37.910077]
MENZIES CREEK,VIC,145.3892,-37.921894,[145.3892 -37.921894]
SELBY,VIC,145.3892,-37.921894,[145.3892 -37.921894]
BELGRAVE,VIC,145.350821,-37.935097,[145.350821 -37.935097]
BELGRAVE HEIGHTS,VIC,145.350821,-37.935097,[145.350821 -37.935097]
BELGRAVE SOUTH,VIC,145.350821,-37.935097,[145.350821 -37.935097]
TECOMA,VIC,145.350821,-37.935097,[145.350821 -37.935097]
CAULFIELD NORTH,VIC,145.019929,-37.873733,[145.019929 -37.873733]
CAULFIELD,VIC,145.023394,-37.892139,[145.023394 -37.892139]
CAULFIELD SOUTH,VIC,145.023394,-37.892139,[145.023394 -37.892139]
CARNEGIE,VIC,145.057237,-37.896497,[145.057237 -37.896497]
GLEN HUNTLY,VIC,145.057237,-37.896497,[145.057237 -37.896497]
MURRUMBEENA,VIC,145.057237,-37.896497,[145.057237 -37.896497]
BENTLEIGH EAST,VIC,145.059426,-37.922369,[145.059426 -37.922369]
HUGHESDALE,VIC,145.089719,-37.902805,[145.089719 -37.902805]
HUNTINGDALE,VIC,145.089719,-37.902805,[145.089719 -37.902805]
OAKLEIGH,VIC,145.089719,-37.902805,[145.089719 -37.902805]
OAKLEIGH EAST,VIC,145.089719,-37.902805,[145.089719 -37.902805]
OAKLEIGH SOUTH,VIC,145.087614,-37.923345,[145.087614 -37.923345]
CLAYTON,VIC,145.12665,-37.91342,[145.12665 -37.91342]
NOTTING HILL,VIC,145.12665,-37.91342,[145.12665 -37.91342]
CLARINDA,VIC,145.115271,-37.945149,[145.115271 -37.945149]
CLAYTON SOUTH,VIC,145.115271,-37.945149,[145.115271 -37.945149]
MULGRAVE,VIC,145.167859,-37.920945,[145.167859 -37.920945]
SPRINGVALE,VIC,145.156783,-37.944608,[145.156783 -37.944608]
DINGLEY VILLAGE,VIC,145.13465,-37.975981,[145.13465 -37.975981]
SPRINGVALE SOUTH,VIC,145.13465,-37.975981,[145.13465 -37.975981]
KEYSBOROUGH,VIC,145.164863,-38.006771,[145.164863 -38.006771]
NOBLE PARK,VIC,145.17877,-37.966218,[145.17877 -37.966218]
NOBLE PARK NORTH,VIC,145.17877,-37.966218,[145.17877 -37.966218]
DANDENONG,VIC,145.208504,-38.016114,[145.208504 -38.016114]
DANDENONG NORTH,VIC,145.208504,-38.016114,[145.208504 -38.016114]
DOVETON,VIC,145.237462,-37.990985,[145.237462 -37.990985]
EUMEMMERRING,VIC,145.237462,-37.990985,[145.237462 -37.990985]
ROWVILLE,VIC,145.241589,-37.924431,[145.241589 -37.924431]
SCORESBY,VIC,145.222634,-37.897137,[145.222634 -37.897137]
KNOXFIELD,VIC,145.246731,-37.893263,[145.246731 -37.893263]
PRAHRAN,VIC,144.995504,-37.854683,[144.995504 -37.854683]
WINDSOR,VIC,144.995504,-37.854683,[144.995504 -37.854683]
ST KILDA,VIC,144.979478,-37.865322,[144.979478 -37.865322]
ST KILDA WEST,VIC,144.979478,-37.865322,[144.979478 -37.865322]
BALACLAVA,VIC,144.999026,-37.869072,[144.999026 -37.869072]
ST KILDA EAST,VIC,144.999026,-37.869072,[144.999026 -37.869072]
ELWOOD,VIC,144.984034,-37.881414,[144.984034 -37.881414]
ELSTERNWICK,VIC,145.002571,-37.891841,[145.002571 -37.891841]
GARDENVALE,VIC,145.002571,-37.891841,[145.002571 -37.891841]
RIPPONLEA,VIC,145.002571,-37.891841,[145.002571 -37.891841]
BRIGHTON,VIC,144.996329,-37.915066,[144.996329 -37.915066]
BRIGHTON EAST,VIC,145.013593,-37.925371,[145.013593 -37.925371]
HAMPTON,VIC,145.007238,-37.938889,[145.007238 -37.938889]
HAMPTON EAST,VIC,145.007238,-37.938889,[145.007238 -37.938889]
MOORABBIN,VIC,145.047802,-37.942021,[145.047802 -37.942021]
HIGHETT,VIC,145.038147,-37.951394,[145.038147 -37.951394]
SANDRINGHAM,VIC,145.013472,-37.956585,[145.013472 -37.956585]
CHELTENHAM,VIC,145.0623,-37.965655,[145.0623 -37.965655]
CHELTENHAM EAST,VIC,145.0623,-37.965655,[145.0623 -37.965655]
CHELTENHAM NORTH,VIC,145.0623,-37.965655,[145.0623 -37.965655]
BEAUMARIS,VIC,145.031561,-37.978698,[145.031561 -37.978698]
BLACK ROCK,VIC,145.031561,-37.978698,[145.031561 -37.978698]
MENTONE,VIC,145.067356,-37.985059,[145.067356 -37.985059]
ASPENDALE,VIC,145.104105,-38.007024,[145.104105 -38.007024]
ASPENDALE GARDENS,VIC,145.104105,-38.007024,[145.104105 -38.007024]
MORDIALLOC,VIC,145.104105,-38.007024,[145.104105 -38.007024]
PARKDALE,VIC,145.104105,-38.007024,[145.104105 -38.007024]
WATERWAYS,VIC,145.104105,-38.007024,[145.104105 -38.007024]
BONBEACH,VIC,145.122762,-38.046479,[145.122762 -38.046479]
CHELSEA,VIC,145.122762,-38.046479,[145.122762 -38.046479]
CHELSEA HEIGHTS,VIC,145.122762,-38.046479,[145.122762 -38.046479]
EDITHVALE,VIC,145.122762,-38.046479,[145.122762 -38.046479]
CARRUM,VIC,145.134111,-38.072748,[145.134111 -38.072748]
PATTERSON LAKES,VIC,145.134111,-38.072748,[145.134111 -38.072748]
SEAFORD,VIC,145.137811,-38.103194,[145.137811 -38.103194]
FRANKSTON,VIC,145.135961,-38.162578,[145.135961 -38.162578]
FRANKSTON SOUTH,VIC,145.135961,-38.162578,[145.135961 -38.162578]
FRANKSTON NORTH,VIC,145.157574,-38.126458,[145.157574 -38.126458]
CARRUM DOWNS,VIC,145.177905,-38.092874,[145.177905 -38.092874]
HEATHERTON,VIC,145.092698,-37.960555,[145.092698 -37.960555]
BENTLEIGH,VIC,145.036783,-37.916956,[145.036783 -37.916956]
MCKINNON,VIC,145.036783,-37.916956,[145.036783 -37.916956]
ORMOND,VIC,145.036783,-37.916956,[145.036783 -37.916956]
SOUTH MELBOURNE,VIC,144.958176,-37.831693,[144.958176 -37.831693]
ALBERT PARK,VIC,144.95086,-37.846534,[144.95086 -37.846534]
MIDDLE PARK,VIC,144.95086,-37.846534,[144.95086 -37.846534]
GARDEN CITY,VIC,144.918044,-37.832179,[144.918044 -37.832179]
PORT MELBOURNE,VIC,144.918044,-37.832179,[144.918044 -37.832179]
LARA,VIC,144.422666,-38.039958,[144.422666 -38.039958]
LOVELY BANKS,VIC,144.3223578,-38.04070313,[144.3223578 -38.04070313]
CORIO,VIC,144.352385,-38.084781,[144.352385 -38.084781]
NORLANE,VIC,144.352385,-38.084781,[144.352385 -38.084781]
NORTH SHORE,VIC,144.352385,-38.084781,[144.352385 -38.084781]
BELL PARK,VIC,144.33452,-38.111002,[144.33452 -38.111002]
BELL POST HILL,VIC,144.33452,-38.111002,[144.33452 -38.111002]
DRUMCONDRA,VIC,144.33452,-38.111002,[144.33452 -38.111002]
HAMLYN HEIGHTS,VIC,144.33452,-38.111002,[144.33452 -38.111002]
NORTH GEELONG,VIC,144.33452,-38.111002,[144.33452 -38.111002]
RIPPLESIDE,VIC,144.33452,-38.111002,[144.33452 -38.111002]
BELMONT,VIC,144.334005,-38.215906,[144.334005 -38.215906]
GROVEDALE,VIC,144.334005,-38.215906,[144.334005 -38.215906]
HIGHTON,VIC,144.334005,-38.215906,[144.334005 -38.215906]
MARSHALL,VIC,144.334005,-38.215906,[144.334005 -38.215906]
MOUNT DUNEED,VIC,144.334005,-38.215906,[144.334005 -38.215906]
WANDANA HEIGHTS,VIC,144.334005,-38.215906,[144.334005 -38.215906]
WAURN PONDS,VIC,144.334005,-38.215906,[144.334005 -38.215906]
ARMSTRONG CREEK,VIC,144.3707843,-38.23413976,[144.3707843 -38.23413976]
CHARLEMONT,VIC,144.3683696,-38.21558906,[144.3683696 -38.21558906]
FYANSFORD,VIC,144.2894883,-38.13028025,[144.2894883 -38.13028025]
GEELONG WEST,VIC,144.330986,-38.138728,[144.330986 -38.138728]
HERNE HILL,VIC,144.330986,-38.138728,[144.330986 -38.138728]
MANIFOLD HEIGHTS,VIC,144.330986,-38.138728,[144.330986 -38.138728]
BREAKWATER,VIC,144.389533,-38.17277,[144.389533 -38.17277]
EAST GEELONG,VIC,144.389533,-38.17277,[144.389533 -38.17277]
NEWCOMB,VIC,144.389533,-38.17277,[144.389533 -38.17277]
ST ALBANS PARK,VIC,144.389533,-38.17277,[144.389533 -38.17277]
WHITTINGTON,VIC,144.389533,-38.17277,[144.389533 -38.17277]
GEELONG,VIC,144.34652,-38.157038,[144.34652 -38.157038]
SOUTH GEELONG,VIC,144.34652,-38.157038,[144.34652 -38.157038]
CLIFTON SPRINGS,VIC,144.572989,-38.209921,[144.572989 -38.209921]
CURLEWIS,VIC,144.572989,-38.209921,[144.572989 -38.209921]
DRYSDALE,VIC,144.572989,-38.209921,[144.572989 -38.209921]
INDENTED HEAD,VIC,144.668477,-38.147989,[144.668477 -38.147989]
PORTARLINGTON,VIC,144.668477,-38.147989,[144.668477 -38.147989]
ST LEONARDS,VIC,144.668477,-38.147989,[144.668477 -38.147989]
LEOPOLD,VIC,144.462401,-38.202905,[144.462401 -38.202905]
POINT LONSDALE,VIC,144.614191,-38.271074,[144.614191 -38.271074]
QUEENSCLIFF,VIC,144.614191,-38.271074,[144.614191 -38.271074]
OCEAN GROVE,VIC,144.523761,-38.263811,[144.523761 -38.263811]
BARWON HEADS,VIC,144.40814,-38.263052,[144.40814 -38.263052]
CONNEWARRE,VIC,144.40814,-38.263052,[144.40814 -38.263052]
JAN JUC,VIC,144.299978,-38.307545,[144.299978 -38.307545]
TORQUAY,VIC,144.299978,-38.307545,[144.299978 -38.307545]
ANGLESEA,VIC,144.176397,-38.409363,[144.176397 -38.409363]
AIREYS INLET,VIC,144.106892,-38.459435,[144.106892 -38.459435]
FAIRHAVEN,VIC,144.106892,-38.459435,[144.106892 -38.459435]
LORNE,VIC,143.970167,-38.544977,[143.970167 -38.544977]
APOLLO BAY,VIC,143.671777,-38.679417,[143.671777 -38.679417]
MARENGO,VIC,143.671777,-38.679417,[143.671777 -38.679417]
SKENES CREEK,VIC,143.671777,-38.679417,[143.671777 -38.679417]
WINCHELSEA,VIC,143.892824,-38.20363,[143.892824 -38.20363]
BIRREGURRA,VIC,143.740326,-38.346704,[143.740326 -38.346704]
COLAC,VIC,143.584742,-38.311513,[143.584742 -38.311513]
ELLIMINYT,VIC,143.584742,-38.311513,[143.584742 -38.311513]
BEEAC,VIC,143.648479,-38.155186,[143.648479 -38.155186]
CAMPERDOWN,VIC,143.244766,-38.209584,[143.244766 -38.209584]
TERANG,VIC,142.884394,-38.232443,[142.884394 -38.232443]
COBDEN,VIC,143.133721,-38.407094,[143.133721 -38.407094]
TIMBOON,VIC,142.908911,-38.535802,[142.908911 -38.535802]
PETERBOROUGH,VIC,142.870164,-38.602117,[142.870164 -38.602117]
MORTLAKE,VIC,142.853634,-37.982186,[142.853634 -37.982186]
ALLANSFORD,VIC,142.660221,-38.389835,[142.660221 -38.389835]
DENNINGTON,VIC,142.482889,-38.37884,[142.482889 -38.37884]
WARRNAMBOOL,VIC,142.482889,-38.37884,[142.482889 -38.37884]
KOROIT,VIC,142.351658,-38.268176,[142.351658 -38.268176]
PORT FAIRY,VIC,142.119266,-38.270398,[142.119266 -38.270398]
PENSHURST,VIC,142.227754,-37.893196,[142.227754 -37.893196]
NELSON,VIC,141.051987,-38.038873,[141.051987 -38.038873]
DUNKELD,VIC,142.312764,-37.573978,[142.312764 -37.573978]
HAMILTON,VIC,142.013356,-37.743155,[142.013356 -37.743155]
HEYWOOD,VIC,141.952156,-38.182084,[141.952156 -38.182084]
PORTLAND,VIC,141.437227,-38.235475,[141.437227 -38.235475]
PORTLAND NORTH,VIC,141.437227,-38.235475,[141.437227 -38.235475]
CASTERTON,VIC,141.229722,-37.468159,[141.229722 -37.468159]
COLERAINE,VIC,141.687516,-37.408371,[141.687516 -37.408371]
EDENHOPE,VIC,141.269571,-37.025316,[141.269571 -37.025316]
LISMORE,VIC,143.375414,-37.941939,[143.375414 -37.941939]
DERRINALLUM,VIC,143.185911,-37.877452,[143.185911 -37.877452]
BANNOCKBURN,VIC,144.194625,-38.049195,[144.194625 -38.049195]
MEREDITH,VIC,144.04476,-37.87179,[144.04476 -37.87179]
BONNIE BROOK,VIC,144.6698898,-37.69608887,[144.6698898 -37.69608887]
ROCKBANK,VIC,144.699671,-37.724141,[144.699671 -37.724141]
THORNHILL PARK,VIC,144.624896,-37.73029166,[144.624896 -37.73029166]
AINTREE,VIC,144.6684,-37.719,[144.6684 -37.719]
DEANSIDE,VIC,144.7041,-37.7332,[144.7041 -37.7332]
FRASER RISE,VIC,144.7126219,-37.70482231,[144.7126219 -37.70482231]
HARKNESS,VIC,144.5462424,-37.65724033,[144.5462424 -37.65724033]
KURUNJANG,VIC,144.571458,-37.656057,[144.571458 -37.656057]
MELTON,VIC,144.571458,-37.656057,[144.571458 -37.656057]
MELTON WEST,VIC,144.571458,-37.656057,[144.571458 -37.656057]
BROOKFIELD,VIC,144.571033,-37.705529,[144.571033 -37.705529]
COBBLEBANK,VIC,144.6008548,-37.70732038,[144.6008548 -37.70732038]
EYNESBURY,VIC,144.571033,-37.705529,[144.571033 -37.705529]
MELTON SOUTH,VIC,144.571033,-37.705529,[144.571033 -37.705529]
STRATHTULLOH,VIC,144.5969094,-37.73398997,[144.5969094 -37.73398997]
WEIR VIEWS,VIC,144.5683367,-37.72870467,[144.5683367 -37.72870467]
BACCHUS MARSH,VIC,144.394442,-37.787135,[144.394442 -37.787135]
DARLEY,VIC,144.394442,-37.787135,[144.394442 -37.787135]
MADDINGLEY,VIC,144.394442,-37.787135,[144.394442 -37.787135]
BALLAN,VIC,144.239102,-37.651463,[144.239102 -37.651463]
GORDON,VIC,144.123664,-37.5878,[144.123664 -37.5878]
ALFREDTON,VIC,143.864505,-37.571941,[143.864505 -37.571941]
BALLARAT CENTRAL,VIC,143.864505,-37.571941,[143.864505 -37.571941]
BALLARAT EAST,VIC,143.864505,-37.571941,[143.864505 -37.571941]
BALLARAT NORTH,VIC,143.864505,-37.571941,[143.864505 -37.571941]
BLACK HILL,VIC,143.864505,-37.571941,[143.864505 -37.571941]
BROWN HILL,VIC,143.864505,-37.571941,[143.864505 -37.571941]
CANADIAN,VIC,143.864505,-37.571941,[143.864505 -37.571941]
EUREKA,VIC,143.864505,-37.571941,[143.864505 -37.571941]
INVERMAY PARK,VIC,143.864505,-37.571941,[143.864505 -37.571941]
LAKE WENDOUREE,VIC,143.864505,-37.571941,[143.864505 -37.571941]
LUCAS,VIC,143.769084,-37.55411084,[143.769084 -37.55411084]
MOUNT CLEAR,VIC,143.864505,-37.571941,[143.864505 -37.571941]
MOUNT HELEN,VIC,143.864505,-37.571941,[143.864505 -37.571941]
MOUNT PLEASANT,VIC,143.864505,-37.571941,[143.864505 -37.571941]
NERRINA,VIC,143.864505,-37.571941,[143.864505 -37.571941]
NEWINGTON,VIC,143.864505,-37.571941,[143.864505 -37.571941]
REDAN,VIC,143.864505,-37.571941,[143.864505 -37.571941]
SOLDIERS HILL,VIC,143.864505,-37.571941,[143.864505 -37.571941]
SMYTHES CREEK,VIC,143.637463,-37.758248,[143.637463 -37.758248]
SMYTHESDALE,VIC,143.637463,-37.758248,[143.637463 -37.758248]
BONSHAW,VIC,143.813696,-37.60335408,[143.813696 -37.60335408]
CARDIGAN,VIC,143.662387,-37.482132,[143.662387 -37.482132]
MINERS REST,VIC,143.662387,-37.482132,[143.662387 -37.482132]
MITCHELL PARK,VIC,143.662387,-37.482132,[143.662387 -37.482132]
MOUNT EGERTON,VIC,143.662387,-37.482132,[143.662387 -37.482132]
LAKE GARDENS,VIC,143.82561,-37.530285,[143.82561 -37.530285]
WENDOUREE,VIC,143.82561,-37.530285,[143.82561 -37.530285]
DELACOMBE,VIC,143.82846,-37.592283,[143.82846 -37.592283]
SEBASTOPOL,VIC,143.82846,-37.592283,[143.82846 -37.592283]
BUNINYONG,VIC,143.883416,-37.653945,[143.883416 -37.653945]
WINTER VALLEY,VIC,143.7928013,-37.58012926,[143.7928013 -37.58012926]
SKIPTON,VIC,143.373089,-37.752643,[143.373089 -37.752643]
CRESWICK,VIC,143.88637,-37.420588,[143.88637 -37.420588]
CLUNES,VIC,143.815613,-37.252718,[143.815613 -37.252718]
BEAUFORT,VIC,143.343429,-37.457785,[143.343429 -37.457785]
ARARAT,VIC,142.956916,-37.231524,[142.956916 -37.231524]
STAWELL,VIC,142.771159,-37.0666,[142.771159 -37.0666]
HALLS GAP,VIC,142.7154,-36.988914,[142.7154 -36.988914]
RUPANYUP,VIC,142.693946,-36.597861,[142.693946 -36.597861]
MURTOA,VIC,142.487468,-36.583744,[142.487468 -36.583744]
MINYIP,VIC,142.677858,-36.430131,[142.677858 -36.430131]
WARRACKNABEAL,VIC,142.387341,-36.257725,[142.387341 -36.257725]
HOPETOUN,VIC,142.329159,-35.7157,[142.329159 -35.7157]
HORSHAM,VIC,142.203729,-36.725245,[142.203729 -36.725245]
GREEN LAKE,VIC,141.940832,-36.881534,[141.940832 -36.881534]
NATIMUK,VIC,141.89695,-36.667303,[141.89695 -36.667303]
DIMBOOLA,VIC,142.093883,-36.388628,[142.093883 -36.388628]
NHILL,VIC,141.538074,-36.074144,[141.538074 -36.074144]
KANIVA,VIC,141.101929,-36.226015,[141.101929 -36.226015]
JEPARIT,VIC,141.940764,-36.13191,[141.940764 -36.13191]
RAINBOW,VIC,141.930872,-35.727789,[141.930872 -35.727789]
DIGGERS REST,VIC,144.707974,-37.643461,[144.707974 -37.643461]
SUNBURY,VIC,144.728973,-37.56762,[144.728973 -37.56762]
RIDDELLS CREEK,VIC,144.69202,-37.474551,[144.69202 -37.474551]
ROMSEY,VIC,144.750796,-37.35388,[144.750796 -37.35388]
LANCEFIELD,VIC,144.743358,-37.179453,[144.743358 -37.179453]
GISBORNE,VIC,144.513018,-37.501619,[144.513018 -37.501619]
NEW GISBORNE,VIC,144.602032,-37.457528,[144.602032 -37.457528]
MACEDON,VIC,144.546151,-37.413377,[144.546151 -37.413377]
MOUNT MACEDON,VIC,144.603892,-37.399224,[144.603892 -37.399224]
WOODEND,VIC,144.548846,-37.330661,[144.548846 -37.330661]
KYNETON,VIC,144.544716,-37.171788,[144.544716 -37.171788]
MALMSBURY,VIC,144.374338,-37.184831,[144.374338 -37.184831]
CASTLEMAINE,VIC,144.214903,-37.061635,[144.214903 -37.061635]
CAMPBELLS CREEK,VIC,144.21419,-37.125338,[144.21419 -37.125338]
CHEWTON,VIC,144.21419,-37.125338,[144.21419 -37.125338]
MCKENZIE HILL,VIC,144.21419,-37.125338,[144.21419 -37.125338]
HARCOURT,VIC,144.281488,-36.950365,[144.281488 -36.950365]
BLACKWOOD,VIC,144.33471,-37.424116,[144.33471 -37.424116]
TRENTHAM,VIC,144.33471,-37.424116,[144.33471 -37.424116]
DAYLESFORD,VIC,144.144216,-37.351704,[144.144216 -37.351704]
GLENLYON,VIC,144.170995,-37.287848,[144.170995 -37.287848]
HEPBURN,VIC,144.170995,-37.287848,[144.170995 -37.287848]
HEPBURN SPRINGS,VIC,144.170995,-37.287848,[144.170995 -37.287848]
NEWSTEAD,VIC,144.053611,-37.083561,[144.053611 -37.083561]
MALDON,VIC,144.05651,-36.957983,[144.05651 -36.957983]
CARISBROOK,VIC,143.841414,-37.019811,[143.841414 -37.019811]
MARYBOROUGH,VIC,143.611335,-37.021478,[143.611335 -37.021478]
AVOCA,VIC,143.412675,-37.105993,[143.412675 -37.105993]
DUNOLLY,VIC,143.657638,-36.864952,[143.657638 -36.864952]
ST ARNAUD,VIC,143.230699,-36.688551,[143.230699 -36.688551]
DONALD,VIC,142.968057,-36.31227,[142.968057 -36.31227]
BIRCHIP,VIC,142.890804,-35.901765,[142.890804 -35.901765]
OUYEN,VIC,142.206711,-34.911674,[142.206711 -34.911674]
RED CLIFFS,VIC,142.187995,-34.307094,[142.187995 -34.307094]
SUNNYCLIFFS,VIC,142.186246,-34.286644,[142.186246 -34.286644]
IRYMPLE,VIC,142.172516,-34.238385,[142.172516 -34.238385]
MILDURA,VIC,142.154161,-34.1931,[142.154161 -34.1931]
NICHOLS POINT,VIC,142.100896,-34.243279,[142.100896 -34.243279]
MERBEIN,VIC,142.004192,-34.180532,[142.004192 -34.180532]
UNDERBOOL,VIC,141.680385,-35.155031,[141.680385 -35.155031]
MARONG,VIC,144.062915,-36.729444,[144.062915 -36.729444]
BRIDGEWATER ON LODDON,VIC,144.041722,-36.607616,[144.041722 -36.607616]
INGLEWOOD,VIC,143.886832,-36.483116,[143.886832 -36.483116]
WEDDERBURN,VIC,143.586215,-36.474937,[143.586215 -36.474937]
HEATHCOTE,VIC,144.768359,-36.837461,[144.768359 -36.837461]
CHARLTON,VIC,143.364316,-36.2835,[143.364316 -36.2835]
WYCHEPROOF,VIC,143.241334,-36.07096,[143.241334 -36.07096]
SEA LAKE,VIC,142.839304,-35.384557,[142.839304 -35.384557]
BOORT,VIC,143.744455,-36.079335,[143.744455 -36.079335]
QUAMBATOOK,VIC,143.45008,-35.89277,[143.45008 -35.89277]
ROBINVALE,VIC,142.820973,-34.766049,[142.820973 -34.766049]
BENDIGO,VIC,144.285267,-36.764269,[144.285267 -36.764269]
EAST BENDIGO,VIC,144.285267,-36.764269,[144.285267 -36.764269]
FLORA HILL,VIC,144.285267,-36.764269,[144.285267 -36.764269]
IRONBARK,VIC,144.285267,-36.764269,[144.285267 -36.764269]
KENNINGTON,VIC,144.285267,-36.764269,[144.285267 -36.764269]
LONG GULLY,VIC,144.285267,-36.764269,[144.285267 -36.764269]
NORTH BENDIGO,VIC,144.285267,-36.764269,[144.285267 -36.764269]
QUARRY HILL,VIC,144.285267,-36.764269,[144.285267 -36.764269]
SPRING GULLY,VIC,144.285267,-36.764269,[144.285267 -36.764269]
STRATHDALE,VIC,144.285267,-36.764269,[144.285267 -36.764269]
WEST BENDIGO,VIC,144.285267,-36.764269,[144.285267 -36.764269]
WHITE HILLS,VIC,144.285267,-36.764269,[144.285267 -36.764269]
AXEDALE,VIC,144.457937,-36.78137,[144.457937 -36.78137]
EPSOM,VIC,144.457937,-36.78137,[144.457937 -36.78137]
HUNTLY,VIC,144.457937,-36.78137,[144.457937 -36.78137]
JUNORTOUN,VIC,144.457937,-36.78137,[144.457937 -36.78137]
MAIDEN GULLY,VIC,144.457937,-36.78137,[144.457937 -36.78137]
STRATHFIELDSAYE,VIC,144.457937,-36.78137,[144.457937 -36.78137]
GOLDEN SQUARE,VIC,144.245239,-36.777226,[144.245239 -36.777226]
KANGAROO FLAT,VIC,144.245239,-36.777226,[144.245239 -36.777226]
CALIFORNIA GULLY,VIC,144.178282,-36.656422,[144.178282 -36.656422]
EAGLEHAWK,VIC,144.178282,-36.656422,[144.178282 -36.656422]
JACKASS FLAT,VIC,144.178282,-36.656422,[144.178282 -36.656422]
SAILORS GULLY,VIC,144.178282,-36.656422,[144.178282 -36.656422]
ELMORE,VIC,144.638363,-36.51553,[144.638363 -36.51553]
ROCHESTER,VIC,144.709543,-36.321109,[144.709543 -36.321109]
LOCKINGTON,VIC,144.515589,-36.256251,[144.515589 -36.256251]
ECHUCA,VIC,144.728806,-36.168997,[144.728806 -36.168997]
LEITCHVILLE,VIC,144.262942,-35.931669,[144.262942 -35.931669]
COHUNA,VIC,144.184089,-35.809462,[144.184089 -35.809462]
PYRAMID HILL,VIC,144.159028,-36.055725,[144.159028 -36.055725]
KERANG,VIC,143.769445,-35.767974,[143.769445 -35.767974]
KOONDROOK,VIC,144.094672,-35.639761,[144.094672 -35.639761]
LAKE BOGA,VIC,143.637617,-35.431026,[143.637617 -35.431026]
SWAN HILL,VIC,143.336906,-35.348388,[143.336906 -35.348388]
NYAH WEST,VIC,143.351682,-35.202752,[143.351682 -35.202752]
NAGAMBIE,VIC,145.095753,-36.740713,[145.095753 -36.740713]
MURCHISON,VIC,145.229349,-36.577628,[145.229349 -36.577628]
RUSHWORTH,VIC,145.019312,-36.575936,[145.019312 -36.575936]
TATURA,VIC,145.145217,-36.464118,[145.145217 -36.464118]
MERRIGUM,VIC,145.125014,-36.37708,[145.125014 -36.37708]
KYABRAM,VIC,144.936295,-37.659566,[144.936295 -37.659566]
TONGALA,VIC,144.961183,-36.206055,[144.961183 -36.206055]
STANHOPE,VIC,144.976813,-36.461381,[144.976813 -36.461381]
MOOROOPNA,VIC,145.260653,-36.287306,[145.260653 -36.287306]
SHEPPARTON,VIC,145.403176,-36.380853,[145.403176 -36.380853]
KIALLA,VIC,145.526693,-36.428694,[145.526693 -36.428694]
SHEPPARTON NORTH,VIC,145.526693,-36.428694,[145.526693 -36.428694]
NUMURKAH,VIC,145.479471,-36.093878,[145.479471 -36.093878]
NATHALIA,VIC,145.246572,-36.03202,[145.246572 -36.03202]
STRATHMERTON,VIC,145.428306,-35.89718,[145.428306 -35.89718]
COBRAM,VIC,145.631874,-35.955363,[145.631874 -35.955363]
BROADFORD,VIC,145.111854,-37.241401,[145.111854 -37.241401]
FLOWERDALE,VIC,145.111854,-37.241401,[145.111854 -37.241401]
SEYMOUR,VIC,145.257867,-37.035925,[145.257867 -37.035925]
AVENEL,VIC,145.298203,-36.927251,[145.298203 -36.927251]
EUROA,VIC,145.565512,-36.786777,[145.565512 -36.786777]
VIOLET TOWN,VIC,145.708668,-36.625333,[145.708668 -36.625333]
BENALLA,VIC,145.420691,-36.385144,[145.420691 -36.385144]
GLENROWAN,VIC,146.266835,-36.565078,[146.266835 -36.565078]
WANGARATTA,VIC,146.338612,-36.341245,[146.338612 -36.341245]
CHILTERN,VIC,146.604622,-36.180787,[146.604622 -36.180787]
RUTHERGLEN,VIC,146.470638,-36.056449,[146.470638 -36.056449]
WAHGUNYAH,VIC,146.415927,-36.018771,[146.415927 -36.018771]
BARNAWARTHA,VIC,146.717193,-36.119195,[146.717193 -36.119195]
WODONGA,VIC,144.989793,-37.67576,[144.989793 -37.67576]
WEST WODONGA,VIC,146.864361,-36.135717,[146.864361 -36.135717]
BANDIANA,VIC,146.9307559,-36.13591208,[146.9307559 -36.13591208]
BARANDUDA,VIC,147.880991,-36.027154,[147.880991 -36.027154]
LENEVA,VIC,147.880991,-36.027154,[147.880991 -36.027154]
TANGAMBALANGA,VIC,147.880991,-36.027154,[147.880991 -36.027154]
TAWONGA,VIC,147.17925,-36.68753,[147.17925 -36.68753]
TAWONGA SOUTH,VIC,147.149468,-36.722034,[147.149468 -36.722034]
MOUNT BEAUTY,VIC,147.299257,-36.844307,[147.299257 -36.844307]
TALLANGATTA,VIC,147.35527,-36.335898,[147.35527 -36.335898]
CORRYONG,VIC,148.037958,-36.586316,[148.037958 -36.586316]
EILDON,VIC,145.90623,-37.241527,[145.90623 -37.241527]
ALEXANDRA,VIC,145.687889,-37.210538,[145.687889 -37.210538]
YEA,VIC,145.435776,-37.286611,[145.435776 -37.286611]
BONNIE DOON,VIC,145.850304,-37.017241,[145.850304 -37.017241]
MANSFIELD,VIC,146.253268,-37.202634,[146.253268 -37.202634]
GOUGHS BAY,VIC,146.256507,-36.894465,[146.256507 -36.894465]
JAMIESON,VIC,146.256507,-36.894465,[146.256507 -36.894465]
MACS COVE,VIC,146.256507,-36.894465,[146.256507 -36.894465]
SAWMILL SETTLEMENT,VIC,146.256507,-36.894465,[146.256507 -36.894465]
BUNDALONG,VIC,145.974755,-36.051782,[145.974755 -36.051782]
YARRAWONGA,VIC,145.974755,-36.051782,[145.974755 -36.051782]
MYRTLEFORD,VIC,146.479489,-36.455136,[146.479489 -36.455136]
POREPUNKAH,VIC,146.834561,-36.731686,[146.834561 -36.731686]
BRIGHT,VIC,147.063163,-36.962316,[147.063163 -36.962316]
BEECHWORTH,VIC,146.725705,-36.361056,[146.725705 -36.361056]
YACKANDANDAH,VIC,146.842075,-36.357399,[146.842075 -36.357399]
WOLLERT,VIC,145.005578,-37.596078,[145.005578 -37.596078]
SOUTH MORANG,VIC,145.074353,-37.619102,[145.074353 -37.619102]
BEVERIDGE,VIC,144.959512,-37.476474,[144.959512 -37.476474]
DOREEN,VIC,145.112985,-37.593554,[145.112985 -37.593554]
MERNDA,VIC,145.112985,-37.593554,[145.112985 -37.593554]
WALLAN,VIC,144.956641,-37.41233,[144.956641 -37.41233]
WALLAN EAST,VIC,144.956641,-37.41233,[144.956641 -37.41233]
WHITTLESEA,VIC,145.182221,-37.469784,[145.182221 -37.469784]
HEATHCOTE JUNCTION,VIC,145.052552,-37.354647,[145.052552 -37.354647]
WANDONG,VIC,145.052552,-37.354647,[145.052552 -37.354647]
KINGLAKE,VIC,145.353378,-37.521863,[145.353378 -37.521863]
KILMORE,VIC,144.900644,-37.263736,[144.900644 -37.263736]
MONTROSE,VIC,145.346621,-37.814771,[145.346621 -37.814771]
KALORAMA,VIC,145.384955,-37.817818,[145.384955 -37.817818]
MOUNT DANDENONG,VIC,145.347505,-37.839387,[145.347505 -37.839387]
COLDSTREAM,VIC,145.416004,-37.708784,[145.416004 -37.708784]
YARRA GLEN,VIC,145.365993,-37.642852,[145.365993 -37.642852]
BADGER CREEK,VIC,145.513804,-37.606088,[145.513804 -37.606088]
HEALESVILLE,VIC,145.513804,-37.606088,[145.513804 -37.606088]
MARYSVILLE,VIC,145.784751,-37.539267,[145.784751 -37.539267]
COCKATOO,VIC,145.487862,-37.938471,[145.487862 -37.938471]
AVONSLEIGH,VIC,145.433024,-37.938068,[145.433024 -37.938068]
EMERALD,VIC,145.433024,-37.938068,[145.433024 -37.938068]
GEMBROOK,VIC,145.596576,-37.947379,[145.596576 -37.947379]
FERNY CREEK,VIC,145.332431,-37.878188,[145.332431 -37.878188]
SASSAFRAS,VIC,145.350888,-37.866786,[145.350888 -37.866786]
OLINDA,VIC,145.377128,-37.848036,[145.377128 -37.848036]
KALLISTA,VIC,145.379622,-37.896917,[145.379622 -37.896917]
THE PATCH,VIC,145.405388,-37.89424,[145.405388 -37.89424]
MONBULK,VIC,145.429715,-37.874533,[145.429715 -37.874533]
MOUNT EVELYN,VIC,145.384922,-37.786977,[145.384922 -37.786977]
YARRA JUNCTION,VIC,145.786343,-37.867809,[145.786343 -37.867809]
EAST WARBURTON,VIC,145.818512,-37.727566,[145.818512 -37.727566]
MILLGROVE,VIC,145.818512,-37.727566,[145.818512 -37.727566]
WARBURTON,VIC,145.818512,-37.727566,[145.818512 -37.727566]
WESBURN,VIC,145.818512,-37.727566,[145.818512 -37.727566]
ENDEAVOUR HILLS,VIC,145.255599,-37.971763,[145.255599 -37.971763]
HALLAM,VIC,145.265524,-38.009435,[145.265524 -38.009435]
NARRE WARREN NORTH,VIC,145.325994,-37.980059,[145.325994 -37.980059]
NARRE WARREN,VIC,145.304198,-38.037026,[145.304198 -38.037026]
NARRE WARREN SOUTH,VIC,145.304198,-38.037026,[145.304198 -38.037026]
BERWICK,VIC,145.349488,-38.025018,[145.349488 -38.025018]
BEACONSFIELD,VIC,145.371635,-38.048316,[145.371635 -38.048316]
BEACONSFIELD UPPER,VIC,145.42327,-38.002518,[145.42327 -38.002518]
OFFICER,VIC,145.406887,-38.069094,[145.406887 -38.069094]
OFFICER SOUTH,VIC,145.406887,-38.069094,[145.406887 -38.069094]
PAKENHAM,VIC,145.472514,-38.04658,[145.472514 -38.04658]
NAR NAR GOON,VIC,145.565304,-38.070135,[145.565304 -38.070135]
GARFIELD,VIC,145.669112,-38.10718,[145.669112 -38.10718]
BUNYIP,VIC,145.726311,-38.01378,[145.726311 -38.01378]
LONGWARRY,VIC,145.787991,-38.043542,[145.787991 -38.043542]
DROUIN,VIC,145.867337,-38.096289,[145.867337 -38.096289]
WARRAGUL,VIC,145.922212,-38.207476,[145.922212 -38.207476]
YARRAGON,VIC,146.065656,-38.210382,[146.065656 -38.210382]
TRAFALGAR,VIC,146.16397,-38.245649,[146.16397 -38.245649]
MOE,VIC,146.342932,-37.978862,[146.342932 -37.978862]
NEWBOROUGH,VIC,146.342932,-37.978862,[146.342932 -37.978862]
RAWSON,VIC,146.342932,-37.978862,[146.342932 -37.978862]
WILLOW GROVE,VIC,146.342932,-37.978862,[146.342932 -37.978862]
YALLOURN NORTH,VIC,146.342932,-37.978862,[146.342932 -37.978862]
NEERIM SOUTH,VIC,146.013136,-37.993258,[146.013136 -37.993258]
MORWELL,VIC,146.424457,-38.245215,[146.424457 -38.245215]
CHURCHILL,VIC,146.414358,-38.315452,[146.414358 -38.315452]
TRARALGON,VIC,146.607101,-38.316869,[146.607101 -38.316869]
TRARALGON EAST,VIC,146.607101,-38.316869,[146.607101 -38.316869]
ROSEDALE,VIC,146.772991,-38.166213,[146.772991 -38.166213]
SALE,VIC,147.106181,-38.224191,[147.106181 -38.224191]
WURRUK,VIC,147.106181,-38.224191,[147.106181 -38.224191]
GOLDEN BEACH,VIC,147.084398,-38.035548,[147.084398 -38.035548]
LOCH SPORT,VIC,147.084398,-38.035548,[147.084398 -38.035548]
PARADISE BEACH,VIC,147.084398,-38.035548,[147.084398 -38.035548]
SEASPRAY,VIC,147.084398,-38.035548,[147.084398 -38.035548]
THE HONEYSUCKLES,VIC,147.084398,-38.035548,[147.084398 -38.035548]
GLENGARRY,VIC,146.596877,-38.12413,[146.596877 -38.12413]
TOONGABBIE,VIC,146.672206,-38.063907,[146.672206 -38.063907]
HEYFIELD,VIC,146.576101,-37.821756,[146.576101 -37.821756]
BRIAGOLONG,VIC,146.805175,-37.571707,[146.805175 -37.571707]
COONGULLA,VIC,146.805175,-37.571707,[146.805175 -37.571707]
MAFFRA,VIC,146.805175,-37.571707,[146.805175 -37.571707]
STRATFORD,VIC,147.228456,-37.597551,[147.228456 -37.597551]
LINDENOW,VIC,147.455946,-37.796743,[147.455946 -37.796743]
YINNAR,VIC,146.359836,-38.364689,[146.359836 -38.364689]
BOOLARRA,VIC,146.319351,-38.437946,[146.319351 -38.437946]
MIRBOO NORTH,VIC,146.158866,-38.42207,[146.158866 -38.42207]
MCLOUGHLINS BEACH,VIC,146.836248,-38.514438,[146.836248 -38.514438]
BAIRNSDALE,VIC,147.63201,-37.826032,[147.63201 -37.826032]
EAST BAIRNSDALE,VIC,147.63201,-37.826032,[147.63201 -37.826032]
EASTWOOD,VIC,147.63201,-37.81289131,[147.63201 -37.81289131]
LUCKNOW,VIC,147.63201,-37.826032,[147.63201 -37.826032]
NEWLANDS ARM,VIC,147.63201,-37.826032,[147.63201 -37.826032]
WY YUNG,VIC,147.63201,-37.826032,[147.63201 -37.826032]
EAGLE POINT,VIC,147.680121,-37.898544,[147.680121 -37.898544]
PAYNESVILLE,VIC,147.727389,-37.914728,[147.727389 -37.914728]
RAYMOND ISLAND,VIC,147.727389,-37.914728,[147.727389 -37.914728]
BRUTHEN,VIC,148.118511,-37.291807,[148.118511 -37.291807]
MARLO,VIC,148.660943,-37.39051,[148.660943 -37.39051]
ORBOST,VIC,148.660943,-37.39051,[148.660943 -37.39051]
MALLACOOTA,VIC,149.909868,-37.563775,[149.909868 -37.563775]
DINNER PLAIN,VIC,147.464799,-37.066169,[147.464799 -37.066169]
OMEO,VIC,147.464799,-37.066169,[147.464799 -37.066169]
SWAN REACH,VIC,147.867533,-37.811303,[147.867533 -37.811303]
METUNG,VIC,147.839367,-37.881041,[147.839367 -37.881041]
KALIMNA,VIC,147.970237,-37.821921,[147.970237 -37.821921]
LAKE BUNGA,VIC,147.970237,-37.821921,[147.970237 -37.821921]
LAKE TYERS BEACH,VIC,147.970237,-37.821921,[147.970237 -37.821921]
LAKES ENTRANCE,VIC,147.970237,-37.821921,[147.970237 -37.821921]
LANGWARRIN,VIC,145.198328,-38.156369,[145.198328 -38.156369]
BAXTER,VIC,145.169556,-38.196908,[145.169556 -38.196908]
PEARCEDALE,VIC,145.227373,-38.217991,[145.227373 -38.217991]
SOMERVILLE,VIC,145.227373,-38.217991,[145.227373 -38.217991]
TYABB,VIC,145.166426,-38.262273,[145.166426 -38.262273]
HASTINGS,VIC,145.136622,-38.305806,[145.136622 -38.305806]
SHOREHAM,VIC,145.050587,-38.415199,[145.050587 -38.415199]
BITTERN,VIC,145.155546,-38.339871,[145.155546 -38.339871]
CRIB POINT,VIC,145.199777,-38.352327,[145.199777 -38.352327]
COWES,VIC,145.231974,-38.482182,[145.231974 -38.482182]
SILVERLEAVES,VIC,145.231974,-38.482182,[145.231974 -38.482182]
SMITHS BEACH,VIC,145.231974,-38.482182,[145.231974 -38.482182]
SUNDERLAND BAY,VIC,145.231974,-38.482182,[145.231974 -38.482182]
SUNSET STRIP,VIC,145.231974,-38.482182,[145.231974 -38.482182]
SURF BEACH,VIC,145.231974,-38.482182,[145.231974 -38.482182]
VENTNOR,VIC,145.231974,-38.482182,[145.231974 -38.482182]
WIMBLEDON HEIGHTS,VIC,145.231974,-38.482182,[145.231974 -38.482182]
RHYLL,VIC,145.293632,-38.465552,[145.293632 -38.465552]
NEWHAVEN,VIC,145.379683,-38.528213,[145.379683 -38.528213]
SAN REMO,VIC,145.379683,-38.528213,[145.379683 -38.528213]
BALNARRING,VIC,145.094502,-38.355231,[145.094502 -38.355231]
BALNARRING BEACH,VIC,145.094502,-38.355231,[145.094502 -38.355231]
SOMERS,VIC,145.153269,-38.383368,[145.153269 -38.383368]
FLINDERS,VIC,144.976673,-38.460965,[144.976673 -38.460965]
MOUNT ELIZA,VIC,145.093743,-38.195017,[145.093743 -38.195017]
MORNINGTON,VIC,145.049503,-38.230038,[145.049503 -38.230038]
MOUNT MARTHA,VIC,145.031598,-38.2783,[145.031598 -38.2783]
DROMANA,VIC,145.007626,-38.326447,[145.007626 -38.326447]
SAFETY BEACH,VIC,145.007626,-38.326447,[145.007626 -38.326447]
RED HILL,VIC,145.01994,-38.373694,[145.01994 -38.373694]
MCCRAE,VIC,144.931834,-38.354321,[144.931834 -38.354321]
CAPE SCHANCK,VIC,144.900413,-38.42776,[144.900413 -38.42776]
FINGAL,VIC,144.900413,-38.42776,[144.900413 -38.42776]
ROSEBUD,VIC,144.900413,-38.42776,[144.900413 -38.42776]
CAPEL SOUND,VIC,144.8754149,-38.37363083,[144.8754149 -38.37363083]
RYE,VIC,144.827203,-38.396077,[144.827203 -38.396077]
ST ANDREWS BEACH,VIC,144.827203,-38.396077,[144.827203 -38.396077]
TOOTGAROOK,VIC,144.827203,-38.396077,[144.827203 -38.396077]
BLAIRGOWRIE,VIC,144.768301,-38.367874,[144.768301 -38.367874]
SORRENTO,VIC,144.739101,-38.345527,[144.739101 -38.345527]
PORTSEA,VIC,144.692708,-38.321871,[144.692708 -38.321871]
LOCH,VIC,145.697053,-38.381582,[145.697053 -38.381582]
KORUMBURRA,VIC,145.812945,-38.435217,[145.812945 -38.435217]
LEONGATHA,VIC,145.995174,-38.460127,[145.995174 -38.460127]
VENUS BAY,VIC,145.955341,-38.597018,[145.955341 -38.597018]
WALKERVILLE,VIC,145.955341,-38.597018,[145.955341 -38.597018]
SANDY POINT,VIC,146.066529,-38.734636,[146.066529 -38.734636]
FOSTER,VIC,146.360412,-39.140761,[146.360412 -39.140761]
TOORA,VIC,146.359804,-38.60357,[146.359804 -38.60357]
PORT WELSHPOOL,VIC,146.472132,-38.693437,[146.472132 -38.693437]
WELSHPOOL,VIC,146.436583,-38.630568,[146.436583 -38.630568]
PORT ALBERT,VIC,146.815723,-38.631942,[146.815723 -38.631942]
YARRAM,VIC,146.815723,-38.631942,[146.815723 -38.631942]
LYNBROOK,VIC,145.231114,-38.05354,[145.231114 -38.05354]
LYNDHURST,VIC,145.231114,-38.05354,[145.231114 -38.05354]
HAMPTON PARK,VIC,145.264296,-38.043995,[145.264296 -38.043995]
BOTANIC RIDGE,VIC,145.2695101,-38.1466398,[145.2695101 -38.1466398]
CRANBOURNE,VIC,145.268888,-38.135253,[145.268888 -38.135253]
CRANBOURNE EAST,VIC,145.268888,-38.135253,[145.268888 -38.135253]
CRANBOURNE NORTH,VIC,145.268888,-38.135253,[145.268888 -38.135253]
CRANBOURNE SOUTH,VIC,145.268888,-38.135253,[145.268888 -38.135253]
CRANBOURNE WEST,VIC,145.268888,-38.135253,[145.268888 -38.135253]
JUNCTION VILLAGE,VIC,145.268888,-38.135253,[145.268888 -38.135253]
SANDHURST,VIC,145.2086871,-38.08209438,[145.2086871 -38.08209438]
SKYE,VIC,145.268888,-38.135253,[145.268888 -38.135253]
CLYDE,VIC,145.384606,-38.135009,[145.384606 -38.135009]
CLYDE NORTH,VIC,145.384606,-38.135009,[145.384606 -38.135009]
BLIND BIGHT,VIC,145.356937,-38.204448,[145.356937 -38.204448]
TOORADIN,VIC,145.356937,-38.204448,[145.356937 -38.204448]
WARNEET,VIC,145.356937,-38.204448,[145.356937 -38.204448]
KOO WEE RUP,VIC,145.575,-38.207298,[145.575 -38.207298]
CORINELLA,VIC,145.563979,-38.312647,[145.563979 -38.312647]
CORONET BAY,VIC,145.563979,-38.312647,[145.563979 -38.312647]
GRANTVILLE,VIC,145.563979,-38.312647,[145.563979 -38.312647]
LANG LANG,VIC,145.563979,-38.312647,[145.563979 -38.312647]
PIONEER BAY,VIC,145.563979,-38.312647,[145.563979 -38.312647]
POOWONG,VIC,145.811863,-38.313447,[145.811863 -38.313447]
DALYSTON,VIC,145.534315,-38.569135,[145.534315 -38.569135]
CAPE PATERSON,VIC,145.630713,-38.578071,[145.630713 -38.578071]
KILCUNDA,VIC,145.630713,-38.578071,[145.630713 -38.578071]
NORTH WONTHAGGI,VIC,145.630713,-38.578071,[145.630713 -38.578071]
WONTHAGGI,VIC,145.630713,-38.578071,[145.630713 -38.578071]
INVERLOCH,VIC,145.745609,-38.629561,[145.745609 -38.629561]
